[
  {
    "id": 1,
    "city": "Milan",
    "title": "Apartamento diseño en Porta Romana",
    "dates": "12-17 jun",
    "type": "Apartamento entero",
    "price": "115 € noche",
    "priceValue": 115,
    "rating": 4.82,
    "image": "/img/img_0.jpeg",
    "category": "diseno",
    "lat": 45.4566,
    "lng": 9.2048
  },
  {
    "id": 2,
    "city": "Barcelona",
    "title": "Piso luminoso con balcón en el centro",
    "dates": "20-25 jun",
    "type": "Superanfitrión",
    "price": "142 € noche",
    "priceValue": 142,
    "rating": 4.9,
    "image": "/img/img_1.jpg",
    "category": "tendencias",
    "lat": 41.3874,
    "lng": 2.1686
  },
  {
    "id": 3,
    "city": "Barcelona",
    "title": "Hotel boutique con rooftop",
    "dates": "5-9 jul",
    "type": "Habitación privada",
    "price": "128 € noche",
    "priceValue": 128,
    "rating": 4.76,
    "image": "/img/img_2.jpeg",
    "category": "playa",
    "lat": 41.3769,
    "lng": 2.1921
  },
  {
    "id": 4,
    "city": "Niza",
    "title": "Suite moderna junto al casco histórico",
    "dates": "2-7 ago",
    "type": "Loft",
    "price": "169 € noche",
    "priceValue": 169,
    "rating": 4.71,
    "image": "/img/img_3.jpeg",
    "category": "mansiones",
    "lat": 43.7034,
    "lng": 7.2663
  },
  {
    "id": 5,
    "city": "Roma",
    "title": "Terraza privada con vistas urbanas",
    "dates": "15-20 ago",
    "type": "Apartamento entero",
    "price": "154 € noche",
    "priceValue": 154,
    "rating": 4.89,
    "image": "/img/img_5.png",
    "category": "cabanas",
    "lat": 41.9029,
    "lng": 12.4963
  },
  {
    "id": 6,
    "city": "Barcelona",
    "title": "Apartamento premium con jacuzzi",
    "dates": "10-13 sep",
    "type": "Favorito entre huéspedes",
    "price": "206 € noche",
    "priceValue": 206,
    "rating": 4.95,
    "image": "/img/img_8.jpeg",
    "category": "mansiones",
    "lat": 41.3912,
    "lng": 2.1648
  }
]
